INFO:root:gps_time,depth,confidence,batt_soc,gps_nmea
INFO:root:,None,36.954,10,nan,$PMTK011,MTKGPS*08
INFO:root:,None,34.629,11,nan,$PMTK010,001*2E
INFO:root:,None,31.022,0,nan,$PMTK011,MTKGPS*08
INFO:root:,None,1.65,52,nan,$PMTK010,002*2D
INFO:root:,None,1.921,46,nan,$GNGGA,223926.752,,,,,0,0,,,M,,M,,*58
INFO:root:,None,2.211,51,nan,$GNRMC,223926.752,V,,,,,0.00,0.00,260523,,,N*5D
INFO:root:,None,32.22,53,nan,$GNGGA,223927.752,,,,,0,0,,,M,,M,,*59
INFO:root:,None,32.35,53,nan,$GNRMC,223927.752,V,,,,,0.00,0.00,260523,,,N*5C
INFO:root:,None,31.916,29,nan,$GNGGA,223928.752,,,,,0,0,,,M,,M,,*56
INFO:root:,None,1.631,56,nan,$GNRMC,223928.752,V,,,,,0.00,0.00,260523,,,N*53
INFO:root:,None,1.767,56,nan,$GNGGA,223929.752,,,,,0,0,,,M,,M,,*57
INFO:root:,None,1.996,48,nan,$GNRMC,223929.752,V,,,,,0.00,0.00,260523,,,N*52
INFO:root:,None,2.2,37,nan,$GNGGA,223930.752,,,,,0,0,,,M,,M,,*5F
INFO:root:,None,2.466,19,nan,$GNRMC,223930.752,V,,,,,0.00,0.00,260523,,,N*5A
INFO:root:,None,2.803,4,nan,$GNGGA,223931.752,,,,,0,0,,,M,,M,,*5E
INFO:root:,None,3.038,6,nan,$GNRMC,223931.752,V,,,,,0.00,0.00,260523,,,N*5B
INFO:root:,None,3.491,6,nan,$GNGGA,223932.752,,,,,0,0,,,M,,M,,*5D
INFO:root:,None,3.943,23,nan,$GNRMC,223932.752,V,,,,,0.00,0.00,260523,,,N*58
INFO:root:,None,4.28,23,nan,$GNGGA,223933.752,,,,,0,0,,,M,,M,,*5C
INFO:root:,None,4.684,28,nan,$GNRMC,223933.752,V,,,,,0.00,0.00,260523,,,N*59
INFO:root:,None,5.211,26,nan,$GNGGA,223934.752,,,,,0,0,,,M,,M,,*5B
INFO:root:,None,5.841,27,nan,$GNRMC,223934.752,V,,,,,0.00,0.00,260523,,,N*5E
INFO:root:,None,6.343,34,nan,$GNGGA,223935.752,,,,,0,0,,,M,,M,,*5A
INFO:root:,None,6.972,32,nan,$GNRMC,223935.752,V,,,,,0.00,0.00,260523,,,N*5F
INFO:root:,None,7.306,11,nan,$GNGGA,223936.752,,,,,0,0,,,M,,M,,*59
INFO:root:,None,8.613,23,nan,$GNRMC,223936.752,V,,,,,0.00,0.00,260523,,,N*5C
INFO:root:,None,9.235,0,nan,$GNGGA,223937.752,,,,,0,0,,,M,,M,,*58
INFO:root:,None,10.256,0,nan,$GNRMC,223937.752,V,,,,,0.00,0.00,260523,,,N*5D
INFO:root:,None,10.38,0,nan,$GNGGA,223938.752,,,,,0,0,,,M,,M,,*57
INFO:root:,None,11.308,0,nan,$GNRMC,223938.752,V,,,,,0.00,0.00,260523,,,N*52
INFO:root:,None,10.499,0,nan,$GNGGA,223939.752,,,,,0,0,,,M,,M,,*56
INFO:root:,None,11.526,0,nan,$GNRMC,223939.752,V,,,,,0.00,0.00,260523,,,N*53
INFO:root:,None,10.408,0,nan,$GNGGA,223940.752,,,,,0,0,,,M,,M,,*58
INFO:root:,None,12.201,0,nan,$GNRMC,223940.752,V,,,,,0.00,0.00,260523,,,N*5D
INFO:root:,None,12.802,14,nan,$GNGGA,223941.752,,,,,0,0,,,M,,M,,*59
INFO:root:,None,14.601,22,nan,$GNRMC,223941.752,V,,,,,0.00,0.00,260523,,,N*5C
INFO:root:,None,17.009,37,nan,$GNGGA,223942.752,,,,,0,0,,,M,,M,,*5A
INFO:root:,None,19.219,30,nan,$GNRMC,223942.752,V,,,,,0.00,0.00,260523,,,N*5F
INFO:root:,None,22.038,29,nan,$GNGGA,223943.752,,,,,0,0,,,M,,M,,*5B
INFO:root:,None,24.808,14,nan,$GNRMC,223943.752,V,,,,,0.00,0.00,260523,,,N*5E
INFO:root:,None,28.128,8,nan,$GNGGA,223944.752,,,,,0,0,,,M,,M,,*5C
INFO:root:,None,32.029,24,nan,$GNRMC,223944.752,V,,,,,0.00,0.00,260523,,,N*59
INFO:root:,None,4.037,50,nan,$GNGGA,223945.752,,,,,0,0,,,M,,M,,*5D
INFO:root:,None,4.097,41,nan,$GNRMC,223945.752,V,,,,,0.00,0.00,260523,,,N*58
INFO:root:,None,4.379,16,nan,$GNGGA,223946.752,,,,,0,0,,,M,,M,,*5E
INFO:root:,None,5.317,13,nan,$GNRMC,223946.752,V,,,,,0.00,0.00,260523,,,N*5B
INFO:root:,None,5.576,0,nan,$GNGGA,223947.752,,,,,0,0,,,M,,M,,*5F
INFO:root:,None,5.727,14,nan,$GNRMC,223947.752,V,,,,,0.00,0.00,260523,,,N*5A
INFO:root:,None,12.05,50,nan,$GNGGA,223948.752,,,,,0,0,,,M,,M,,*50
INFO:root:,None,12.805,51,nan,$GNRMC,223948.752,V,,,,,0.00,0.00,260523,,,N*55
INFO:root:,None,14.392,41,nan,$GNGGA,223949.752,,,,,0,0,,,M,,M,,*51
INFO:root:,None,15.755,39,nan,$GNRMC,223949.752,V,,,,,0.00,0.00,260523,,,N*54
INFO:root:,None,17.497,22,nan,$GNGGA,223950.752,,,,,0,0,,,M,,M,,*59
INFO:root:,None,19.889,42,nan,$GNRMC,223950.752,V,,,,,0.00,0.00,260523,,,N*5C
INFO:root:,None,21.74,36,nan,$GNGGA,223951.752,,,,,0,0,,,M,,M,,*58
INFO:root:,None,23.619,32,nan,$GNRMC,223951.752,V,,,,,0.00,0.00,260523,,,N*5D
INFO:root:,None,26.243,24,nan,$GNGGA,223952.752,,,,,0,0,,,M,,M,,*5B
INFO:root:,None,29.182,23,nan,$GNRMC,223952.752,V,,,,,0.00,0.00,260523,,,N*5E
INFO:root:,None,33.825,0,nan,$GNGGA,223953.752,,,,,0,0,,,M,,M,,*5A
INFO:root:,None,35.439,0,nan,$GNRMC,223953.752,V,,,,,0.00,0.00,260523,,,N*5F
INFO:root:,None,27.585,0,nan,$GNGGA,223954.004,,,,,0,0,,,M,,M,,*59
INFO:root:,None,26.307,0,nan,$GNRMC,223954.004,V,,,,,0.00,0.00,260523,,,N*5C
INFO:root:,None,28.162,0,nan,$GNGGA,223955.004,,,,,0,0,,,M,,M,,*58
INFO:root:,None,4.014,53,nan,$GNRMC,223955.004,V,,,,,0.00,0.00,260523,,,N*5D
INFO:root:,None,4.014,53,nan,$GNGGA,223956.004,,,,,0,0,,,M,,M,,*5B
INFO:root:,None,32.91,62,nan,$GNRMC,223956.004,V,,,,,0.00,0.00,260523,,,N*5E
INFO:root:,None,32.81,64,nan,$GNGGA,223957.004,,,,,0,0,,,M,,M,,*5A
INFO:root:,None,31.639,54,nan,$GNRMC,223957.004,V,,,,,0.00,0.00,260523,,,N*5F
INFO:root:,None,29.318,22,nan,$GNGGA,223958.004,,,,,0,0,,,M,,M,,*55
INFO:root:,None,29.79,0,nan,$GNRMC,223958.004,V,,,,,0.00,0.00,260523,,,N*50
INFO:root:,None,31.505,0,nan,$GNGGA,223959.004,,,,,0,0,,,M,,M,,*54
INFO:root:,None,35.932,0,nan,$GNRMC,223959.004,V,,,,,0.00,0.00,260523,,,N*51
INFO:root:,None,28.809,0,nan,$GNRMC,223959.004,V,,,,,0.00,0.00,260523,,,N*51
INFO:root:,None,30.458,0,nan,$GNRMC,224146.092,V,,,,,0.00,0.00,260523,,,N*5F
INFO:root:,None,27.905,0,nan,$GNGGA,224147.092,,,,,0,0,,,M,,M,,*5B
INFO:root:,None,29.339,0,nan,$GNRMC,224147.092,V,,,,,0.00,0.00,260523,,,N*5E
INFO:root:,None,30.339,0,nan,$GNGGA,224148.086,,,,,0,0,,,M,,M,,*51
INFO:root:,None,36.519,0,nan,$GNRMC,224148.086,V,,,,,0.08,0.00,260523,,,N*5C
INFO:root:,None,32.956,0,nan,$GNGGA,224148.306,,,,,0,0,,,M,,M,,*5A
INFO:root:,None,28.579,0,nan,$GNRMC,224148.306,V,,,,,0.07,0.00,260523,,,N*58
INFO:root:,None,27.923,0,nan,$GNGGA,224149.306,,,,,0,0,,,M,,M,,*5B
INFO:root:,None,35.344,0,nan,$GNRMC,224149.306,V,,,,,1.38,244.44,260523,,,N*56
INFO:root:,None,34.865,0,nan,$GNGGA,224150.306,,,,,0,0,,,M,,M,,*53
INFO:root:,None,30.665,0,nan,$GNRMC,224150.306,V,,,,,0.58,212.01,260523,,,N*5B
INFO:root:,None,34.444,0,nan,$GNGGA,224151.306,,,,,0,0,,,M,,M,,*52
INFO:root:,None,33.616,0,nan,$GNRMC,224151.306,V,,,,,0.12,212.01,260523,,,N*54
INFO:root:,None,31.576,0,nan,$GNGGA,224152.306,,,,,0,0,,,M,,M,,*51
INFO:root:,None,33.24,0,nan,$GNRMC,224152.306,V,,,,,0.00,212.01,260523,,,N*54
INFO:root:,None,36.042,0,nan,$GNGGA,224153.306,,,,,0,0,,,M,,M,,*50
INFO:root:,None,36.451,0,nan,$GNRMC,224153.306,V,,,,,0.00,212.01,260523,,,N*55
INFO:root:,None,38.304,0,nan,$GNGGA,224154.093,,,,,0,0,,,M,,M,,*58
INFO:root:,None,36.64,0,nan,$GNRMC,224154.093,V,,,,,0.00,212.01,260523,,,N*5D
INFO:root:,None,40.219,19,nan,$GNGGA,224155.093,,,,,0,0,,,M,,M,,*59
INFO:root:,None,38.427,7,nan,$GNRMC,224155.093,V,,,,,0.00,212.01,260523,,,N*5C
INFO:root:,None,39.422,19,nan,$GNGGA,224156.093,,,,,0,0,,,M,,M,,*5A
INFO:root:,None,36.842,16,nan,$GNRMC,224156.093,V,,,,,0.00,212.01,260523,,,N*5F
INFO:root:,None,39.429,8,nan,$GNGGA,224157.093,,,,,0,0,,,M,,M,,*5B
INFO:root:,None,29.4,0,nan,$GNRMC,224157.093,V,,,,,0.00,212.01,260523,,,N*5E
INFO:root:,None,35.163,0,nan,$GNGGA,224158.093,,,,,0,0,,,M,,M,,*54
INFO:root:,None,40.121,0,nan,$GNRMC,224158.093,V,,,,,0.00,212.01,260523,,,N*51
INFO:root:,None,40.519,0,nan,$GNGGA,224159.093,,,,,0,0,,,M,,M,,*55
INFO:root:,None,40.666,0,nan,$GNRMC,224159.093,V,,,,,0.00,212.01,260523,,,N*50
INFO:root:,None,40.274,0,nan,$GNGGA,224200.093,,,,,0,0,,,M,,M,,*5A
INFO:root:,None,38.985,0,nan,$GNRMC,224200.093,V,,,,,0.06,212.01,260523,,,N*59
INFO:root:,None,38.203,0,nan,$GNGGA,224201.093,,,,,0,0,,,M,,M,,*5B
INFO:root:,None,35.421,0,nan,$GNRMC,224201.093,V,,,,,1.25,244.36,260523,,,N*5F
INFO:root:,None,33.85,0,nan,$GNGGA,224202.093,,,,,0,0,,,M,,M,,*58
INFO:root:,None,29.087,0,nan,$GNRMC,224202.093,V,,,,,1.25,244.35,260523,,,N*5F
INFO:root:,None,37.691,0,nan,$GNGGA,224203.093,,,,,0,0,,,M,,M,,*59
INFO:root:,None,34.924,0,nan,$GNRMC,224203.093,V,,,,,1.13,244.34,260523,,,N*5A
INFO:root:,None,28.791,0,nan,$GNGGA,224204.093,,,,,0,0,,,M,,M,,*5E
INFO:root:,None,33.167,0,nan,$GNRMC,224204.093,V,,,,,1.13,244.34,260523,,,N*5D
INFO:root:,None,27.745,0,nan,$GNGGA,224205.093,,,,,0,0,,,M,,M,,*5F
INFO:root:,None,34.006,11,nan,$GNRMC,224205.093,V,,,,,1.50,244.33,260523,,,N*5C
INFO:root:,None,33.403,0,nan,$GNGGA,224206.093,,,,,0,0,,,M,,M,,*5C
INFO:root:,None,28.612,0,nan,$GNRMC,224206.093,V,,,,,1.28,244.32,260523,,,N*51
INFO:root:,None,30.828,0,nan,$GNGGA,224207.093,,,,,0,0,,,M,,M,,*5D
INFO:root:,None,31.779,0,nan,$GNRMC,224207.093,V,,,,,1.31,244.32,260523,,,N*58
INFO:root:,None,36.301,0,nan,$GNGGA,224208.093,,,,,0,0,,,M,,M,,*52
INFO:root:,None,32.402,0,nan,$GNRMC,224208.093,V,,,,,1.18,244.31,260523,,,N*5F
INFO:root:,None,36.521,0,nan,$GNGGA,224209.093,,,,,0,0,,,M,,M,,*53
INFO:root:,None,35.662,0,nan,$GNRMC,224209.093,V,,,,,1.47,244.30,260523,,,N*55
INFO:root:,None,38.259,20,nan,$GNGGA,224210.093,3320.1064,N,11730.5011,W,1,5,3.62,2.3,M,-34.9,M,,*7D
INFO:root:,2023-05-26T22:42:10,38.02,0,nan,$GNRMC,224210.093,A,3320.1064,N,11730.5011,W,0.27,244.30,260523,,,A*6B
INFO:root:,2023-05-26T22:42:11,35.84,0,nan,$GNGGA,224211.093,3320.1080,N,11730.5020,W,1,5,3.62,3.6,M,-34.9,M,,*70
INFO:root:,2023-05-26T22:42:11,39.649,0,nan,$GNRMC,224211.093,A,3320.1080,N,11730.5020,W,0.05,244.30,260523,,,A*62
INFO:root:,2023-05-26T22:42:13,33.999,0,nan,$GNGGA,224213.000,3320.1080,N,11730.5020,W,1,5,3.62,3.6,M,-34.9,M,,*78
INFO:root:,2023-05-26T22:42:13,37.72,0,nan,$GNRMC,224213.000,A,3320.1080,N,11730.5020,W,0.18,244.30,260523,,,A*66
INFO:root:,2023-05-26T22:42:14,33.924,0,nan,$GNGGA,224214.000,3320.1080,N,11730.5018,W,1,5,3.62,3.8,M,-34.9,M,,*7A
INFO:root:,2023-05-26T22:42:14,39.272,0,nan,$GNRMC,224214.000,A,3320.1080,N,11730.5018,W,0.10,244.30,260523,,,A*62
INFO:root:,2023-05-26T22:42:15,4.084,57,nan,$GNGGA,224215.000,3320.1081,N,11730.5017,W,1,5,3.61,3.9,M,-34.9,M,,*77
INFO:root:,2023-05-26T22:42:15,4.274,30,nan,$GNRMC,224215.000,A,3320.1081,N,11730.5017,W,0.08,244.30,260523,,,A*64
INFO:root:,2023-05-26T22:42:16,4.561,10,nan,$GNGGA,224216.000,3320.1079,N,11730.5013,W,1,5,3.61,4.2,M,-34.9,M,,*7B
INFO:root:,2023-05-26T22:42:16,5.453,14,nan,$GNRMC,224216.000,A,3320.1079,N,11730.5013,W,0.11,244.30,260523,,,A*6C
INFO:root:,2023-05-26T22:42:17,6.105,0,nan,$GNGGA,224217.000,3320.1079,N,11730.5011,W,1,5,3.61,4.5,M,-34.9,M,,*7F
INFO:root:,2023-05-26T22:42:17,6.332,17,nan,$GNRMC,224217.000,A,3320.1079,N,11730.5011,W,0.22,244.30,260523,,,A*6F
INFO:root:,2023-05-26T22:42:18,7.295,32,nan,$GNGGA,224218.000,3320.1078,N,11730.5009,W,1,5,3.61,4.4,M,-34.9,M,,*79
INFO:root:,2023-05-26T22:42:18,8.352,44,nan,$GNRMC,224218.000,A,3320.1078,N,11730.5009,W,0.19,244.30,260523,,,A*60
INFO:root:,2023-05-26T22:42:19,9.2,20,nan,$GNGGA,224219.000,3320.1079,N,11730.5009,W,1,5,3.62,4.0,M,-34.9,M,,*7E
INFO:root:,2023-05-26T22:42:19,10.071,10,nan,$GNRMC,224219.000,A,3320.1079,N,11730.5009,W,0.10,244.30,260523,,,A*69
INFO:root:,2023-05-26T22:42:20,9.974,0,nan,$GNGGA,224220.000,3320.1075,N,11730.5005,W,1,6,1.62,3.5,M,-34.9,M,,*77
INFO:root:,2023-05-26T22:42:20,10.179,0,nan,$GNRMC,224220.000,A,3320.1075,N,11730.5005,W,0.15,244.30,260523,,,A*66
INFO:root:,2023-05-26T22:42:21,9.814,0,nan,$GNGGA,224221.000,3320.1071,N,11730.5003,W,1,6,1.62,3.4,M,-34.9,M,,*75
INFO:root:,2023-05-26T22:42:21,9.999,0,nan,$GNRMC,224221.000,A,3320.1071,N,11730.5003,W,0.01,244.30,260523,,,A*60
INFO:root:,2023-05-26T22:42:22,10.301,0,nan,$GNGGA,224222.000,3320.1073,N,11730.5002,W,1,6,1.62,2.7,M,-34.9,M,,*77
INFO:root:,2023-05-26T22:42:22,11.574,10,nan,$GNRMC,224222.000,A,3320.1073,N,11730.5002,W,0.44,244.30,260523,,,A*61
INFO:root:,2023-05-26T22:42:23,11.77,0,nan,$GNGGA,224223.000,3320.1073,N,11730.5003,W,1,6,1.62,2.7,M,-34.9,M,,*77
INFO:root:,2023-05-26T22:42:23,13.214,0,nan,$GNRMC,224223.000,A,3320.1073,N,11730.5003,W,0.39,244.30,260523,,,A*6B
INFO:root:,2023-05-26T22:42:24,13.504,0,nan,$GNGGA,224224.000,3320.1073,N,11730.5003,W,1,6,1.62,2.7,M,-34.9,M,,*70
INFO:root:,2023-05-26T22:42:24,14.442,10,nan,$GNRMC,224224.000,A,3320.1073,N,11730.5003,W,0.32,244.30,260523,,,A*67
INFO:root:,2023-05-26T22:42:25,17.481,0,nan,$GNGGA,224225.000,3320.1075,N,11730.5003,W,1,7,1.46,2.3,M,-34.9,M,,*74
INFO:root:,2023-05-26T22:42:25,17.971,10,nan,$GNRMC,224225.000,A,3320.1075,N,11730.5003,W,0.40,244.30,260523,,,A*65
INFO:root:,2023-05-26T22:42:26,19.855,0,nan,$GNGGA,224226.000,3320.1076,N,11730.5001,W,1,7,1.45,2.1,M,-34.9,M,,*77
INFO:root:,2023-05-26T22:42:26,22.11,0,nan,$GNRMC,224226.000,A,3320.1076,N,11730.5001,W,0.38,244.30,260523,,,A*68
INFO:root:,2023-05-26T22:42:27,23.739,0,nan,$GNGGA,224227.000,3320.1078,N,11730.5000,W,1,7,1.45,1.7,M,-34.9,M,,*7C
INFO:root:,2023-05-26T22:42:27,27.813,0,nan,$GNRMC,224227.000,A,3320.1078,N,11730.5000,W,0.47,244.30,260523,,,A*6E
INFO:root:,2023-05-26T22:42:28,24.313,0,nan,$GNGGA,224228.000,3320.1079,N,11730.4999,W,1,7,1.45,1.4,M,-34.9,M,,*79
INFO:root:,2023-05-26T22:42:28,23.306,0,nan,$GNRMC,224228.000,A,3320.1079,N,11730.4999,W,0.44,244.30,260523,,,A*6B
INFO:root:,2023-05-26T22:42:29,21.719,0,nan,$GNGGA,224229.000,3320.1078,N,11730.4996,W,1,7,1.45,1.2,M,-34.9,M,,*70
INFO:root:,2023-05-26T22:42:29,20.823,0,nan,$GNRMC,224229.000,A,3320.1078,N,11730.4996,W,0.27,244.30,260523,,,A*61
INFO:root:,2023-05-26T22:42:30,24.203,0,nan,$GNGGA,224230.000,3320.1079,N,11730.4995,W,1,7,1.45,1.0,M,-34.9,M,,*78
INFO:root:,2023-05-26T22:42:30,1.629,48,nan,$GNRMC,224230.000,A,3320.1079,N,11730.4995,W,0.25,244.30,260523,,,A*69
INFO:root:,2023-05-26T22:42:31,1.731,45,nan,$GNGGA,224231.000,3320.1079,N,11730.4992,W,1,7,1.45,0.9,M,-34.9,M,,*76
INFO:root:,2023-05-26T22:42:31,2.011,40,nan,$GNRMC,224231.000,A,3320.1079,N,11730.4992,W,0.22,244.30,260523,,,A*68
INFO:root:,2023-05-26T22:42:32,2.319,42,nan,$GNGGA,224232.000,3320.1081,N,11730.4992,W,1,7,1.45,0.8,M,-34.9,M,,*73
INFO:root:,2023-05-26T22:42:32,2.62,30,nan,$GNRMC,224232.000,A,3320.1081,N,11730.4992,W,0.23,244.30,260523,,,A*6D
INFO:root:,2023-05-26T22:42:33,2.898,25,nan,$GNGGA,224233.000,3320.1081,N,11730.4992,W,1,7,1.45,0.6,M,-34.9,M,,*7C
INFO:root:,2023-05-26T22:42:33,3.16,0,nan,$GNRMC,224233.000,A,3320.1081,N,11730.4992,W,0.20,244.30,260523,,,A*6F
INFO:root:,2023-05-26T22:42:34,11.733,55,nan,$GNGGA,224234.000,3320.1084,N,11730.4991,W,1,7,1.45,0.6,M,-34.9,M,,*7D
INFO:root:,2023-05-26T22:42:34,11.573,54,nan,$GNRMC,224234.000,A,3320.1084,N,11730.4991,W,0.28,244.30,260523,,,A*66
INFO:root:,2023-05-26T22:42:35,11.145,42,nan,$GNGGA,224235.000,3320.1083,N,11730.4991,W,1,7,1.45,0.7,M,-34.9,M,,*7A
INFO:root:,2023-05-26T22:42:35,10.721,8,nan,$GNRMC,224235.000,A,3320.1083,N,11730.4991,W,0.13,244.30,260523,,,A*68
INFO:root:,2023-05-26T22:42:36,10.507,0,nan,$GNGGA,224236.000,3320.1082,N,11730.4991,W,1,7,1.45,0.6,M,-34.9,M,,*79
INFO:root:,2023-05-26T22:42:36,12.551,0,nan,$GNRMC,224236.000,A,3320.1082,N,11730.4991,W,0.12,244.30,260523,,,A*6B
INFO:root:,2023-05-26T22:42:37,14.44,0,nan,$GNGGA,224237.000,3320.1082,N,11730.4989,W,1,7,1.45,0.5,M,-34.9,M,,*72
INFO:root:,2023-05-26T22:42:37,16.845,9,nan,$GNRMC,224237.000,A,3320.1082,N,11730.4989,W,0.08,244.30,260523,,,A*68
INFO:root:,2023-05-26T22:42:38,18.246,9,nan,$GNGGA,224238.000,3320.1081,N,11730.4989,W,1,7,1.45,0.5,M,-34.9,M,,*7E
INFO:root:,2023-05-26T22:42:38,21.078,42,nan,$GNRMC,224238.000,A,3320.1081,N,11730.4989,W,0.14,244.30,260523,,,A*69
INFO:root:,2023-05-26T22:42:39,23.051,35,nan,$GNGGA,224239.000,3320.1081,N,11730.4987,W,1,7,1.45,0.6,M,-34.9,M,,*72
INFO:root:,2023-05-26T22:42:39,24.949,25,nan,$GNRMC,224239.000,A,3320.1081,N,11730.4987,W,0.17,244.30,260523,,,A*65
INFO:root:,2023-05-26T22:42:40,29.885,38,nan,$GNGGA,224240.000,3320.1080,N,11730.4986,W,1,7,1.45,0.7,M,-34.9,M,,*7D
INFO:root:,2023-05-26T22:42:40,31.968,49,nan,$GNRMC,224240.000,A,3320.1080,N,11730.4986,W,0.09,244.30,260523,,,A*64
INFO:root:,2023-05-26T22:42:41,34.811,44,nan,$GNGGA,224241.000,3320.1077,N,11730.4985,W,1,7,1.45,0.8,M,-34.9,M,,*78
INFO:root:,2023-05-26T22:42:41,36.858,49,nan,$GNRMC,224241.000,A,3320.1077,N,11730.4985,W,0.17,244.30,260523,,,A*61
INFO:root:,2023-05-26T22:42:42,38.244,30,nan,$GNGGA,224242.000,3320.1077,N,11730.4983,W,1,7,1.45,0.7,M,-34.9,M,,*72
INFO:root:,2023-05-26T22:42:42,39.245,24,nan,$GNRMC,224242.000,A,3320.1077,N,11730.4983,W,0.17,244.30,260523,,,A*64
INFO:root:,2023-05-26T22:42:42,39.839,11,nan,$GNRMC,224242.000,A,3320.1077,N,11730.4983,W,0.17,244.30,260523,,,A*64
INFO:root:,2023-05-26T22:43:55,39.939,14,nan,$GNGGA,224355.000,3320.1085,N,11730.4987,W,1,8,1.19,5.1,M,-34.9,M,,*79
INFO:root:,2023-05-26T22:43:55,35.899,7,nan,$GNRMC,224355.000,A,3320.1085,N,11730.4987,W,0.48,343.46,260523,,,A*67
INFO:root:,2023-05-26T22:43:56,39.128,10,nan,$GNGGA,224356.000,3320.1085,N,11730.4986,W,1,8,1.19,5.2,M,-34.9,M,,*78
INFO:root:,2023-05-26T22:43:56,38.535,12,nan,$GNRMC,224356.000,A,3320.1085,N,11730.4986,W,0.93,100.11,260523,,,A*64
INFO:root:,2023-05-26T22:43:57,38.301,0,nan,$GNGGA,224357.000,3320.1085,N,11730.4984,W,1,8,1.19,5.3,M,-34.9,M,,*7A
INFO:root:,2023-05-26T22:43:57,38.13,0,nan,$GNRMC,224357.000,A,3320.1085,N,11730.4984,W,0.61,347.48,260523,,,A*67
INFO:root:,2023-05-26T22:43:58,37.079,23,nan,$GNGGA,224358.000,3320.1087,N,11730.4984,W,1,8,1.19,5.3,M,-34.9,M,,*77
INFO:root:,2023-05-26T22:43:58,35.331,11,nan,$GNRMC,224358.000,A,3320.1087,N,11730.4984,W,0.62,331.71,260523,,,A*62
INFO:root:,2023-05-26T22:43:59,33.323,11,nan,$GNGGA,224359.000,3320.1089,N,11730.4985,W,1,8,1.19,5.2,M,-34.9,M,,*78
INFO:root:,2023-05-26T22:43:59,32.313,9,nan,$GNRMC,224359.000,A,3320.1089,N,11730.4985,W,0.76,335.61,260523,,,A*6C
INFO:root:,2023-05-26T22:44:00,34.394,10,nan,$GNGGA,224400.000,3320.1090,N,11730.4986,W,1,8,1.19,5.2,M,-34.9,M,,*78
INFO:root:,2023-05-26T22:44:00,34.193,0,nan,$GNRMC,224400.000,A,3320.1090,N,11730.4986,W,0.63,326.56,260523,,,A*6E
INFO:root:,2023-05-26T22:44:01,36.165,0,nan,$GNGGA,224401.000,3320.1092,N,11730.4988,W,1,8,1.19,5.2,M,-34.9,M,,*75
INFO:root:,2023-05-26T22:44:01,34.568,0,nan,$GNRMC,224401.000,A,3320.1092,N,11730.4988,W,0.55,326.56,260523,,,A*66
INFO:root:,2023-05-26T22:44:02,1.631,56,nan,$GNGGA,224402.000,3320.1093,N,11730.4989,W,1,8,1.19,5.2,M,-34.9,M,,*76
INFO:root:,2023-05-26T22:44:02,1.793,56,99.93,$GNRMC,224402.000,A,3320.1093,N,11730.4989,W,0.31,326.56,260523,,,A*67
INFO:root:,2023-05-26T22:44:03,2.012,53,99.49,$GNGGA,224403.000,3320.1094,N,11730.4990,W,1,8,1.19,5.2,M,-34.9,M,,*78
INFO:root:,2023-05-26T22:44:03,2.265,45,99.5,$GNRMC,224403.000,A,3320.1094,N,11730.4990,W,0.32,326.56,260523,,,A*6A
INFO:root:,2023-05-26T22:44:04,2.56,42,99.52,$GNGGA,224404.000,3320.1089,N,11730.4988,W,1,8,1.19,5.1,M,-34.9,M,,*79
INFO:root:,2023-05-26T22:44:04,4.162,55,99.53,$GNRMC,224404.000,A,3320.1089,N,11730.4988,W,0.15,326.56,260523,,,A*6D
INFO:root:,2023-05-26T22:44:05,4.171,59,99.38,$GNGGA,224405.000,3320.1094,N,11730.4990,W,1,8,1.19,5.2,M,-34.9,M,,*7E
INFO:root:,2023-05-26T22:44:05,4.205,65,99.22,$GNRMC,224405.000,A,3320.1094,N,11730.4990,W,0.13,326.56,260523,,,A*6F
INFO:root:,2023-05-26T22:44:06,4.264,71,99.26,$GNGGA,224406.000,3320.1091,N,11730.4989,W,1,8,1.19,5.2,M,-34.9,M,,*70
INFO:root:,2023-05-26T22:44:06,4.34,80,99.26,$GNRMC,224406.000,A,3320.1091,N,11730.4989,W,0.27,326.56,260523,,,A*66
INFO:root:,2023-05-26T22:44:07,4.394,72,99.26,$GNGGA,224407.000,3320.1093,N,11730.4989,W,1,8,1.19,5.2,M,-34.9,M,,*73
INFO:root:,2023-05-26T22:44:07,4.381,90,99.23,$GNRMC,224407.000,A,3320.1093,N,11730.4989,W,0.10,326.56,260523,,,A*61
INFO:root:,2023-05-26T22:44:08,4.389,91,99.47,$GNGGA,224408.000,3320.1092,N,11730.4989,W,1,8,1.19,5.2,M,-34.9,M,,*7D
INFO:root:,2023-05-26T22:44:08,4.404,93,99.72,$GNRMC,224408.000,A,3320.1092,N,11730.4989,W,0.13,326.56,260523,,,A*6C
INFO:root:,2023-05-26T22:44:09,4.475,94,99.37,$GNGGA,224409.000,3320.1092,N,11730.4988,W,1,8,1.19,5.2,M,-34.9,M,,*7D
INFO:root:,2023-05-26T22:44:09,4.644,94,98.67,$GNRMC,224409.000,A,3320.1092,N,11730.4988,W,0.22,326.56,260523,,,A*6E
INFO:root:,2023-05-26T22:44:10,4.756,95,97.98,$GNGGA,224410.000,3320.1092,N,11730.4987,W,1,8,1.19,5.2,M,-34.9,M,,*7A
INFO:root:,2023-05-26T22:44:10,4.806,96,98.68,$GNRMC,224410.000,A,3320.1092,N,11730.4987,W,0.27,326.56,260523,,,A*6C
INFO:root:,2023-05-26T22:44:11,4.73,99,99.38,$GNGGA,224411.000,3320.1094,N,11730.4986,W,1,8,1.19,5.2,M,-34.9,M,,*7C
INFO:root:,2023-05-26T22:44:11,4.579,82,99.8,$GNRMC,224411.000,A,3320.1094,N,11730.4986,W,0.42,326.56,260523,,,A*69
INFO:root:,2023-05-26T22:44:12,4.464,82,99.49,$GNGGA,224412.000,3320.1094,N,11730.4984,W,1,8,1.19,5.2,M,-34.9,M,,*7D
INFO:root:,2023-05-26T22:44:12,4.329,83,99.18,$GNRMC,224412.000,A,3320.1094,N,11730.4984,W,0.52,326.56,260523,,,A*69
INFO:root:,2023-05-26T22:44:13,4.231,66,99.38,$GNGGA,224413.000,3320.1094,N,11730.4982,W,1,8,1.19,5.2,M,-34.9,M,,*7A
INFO:root:,2023-05-26T22:44:13,4.132,50,99.92,$GNRMC,224413.000,A,3320.1094,N,11730.4982,W,1.96,110.07,260523,,,A*64
INFO:root:,2023-05-26T22:44:14,4.043,66,nan,$GNGGA,224414.000,3320.1094,N,11730.4981,W,1,8,1.19,5.3,M,-34.9,M,,*7F
INFO:root:,2023-05-26T22:44:14,3.887,33,nan,$GNRMC,224414.000,A,3320.1094,N,11730.4981,W,0.44,110.07,260523,,,A*6E
INFO:root:,2023-05-26T22:44:15,4.211,15,nan,$GNGGA,224415.000,3320.1094,N,11730.4983,W,1,8,1.19,5.3,M,-34.9,M,,*7C
INFO:root:,2023-05-26T22:44:15,4.412,14,nan,$GNRMC,224415.000,A,3320.1094,N,11730.4983,W,0.17,110.07,260523,,,A*6B
INFO:root:,2023-05-26T22:44:16,3.956,0,nan,$GNGGA,224416.000,3320.1094,N,11730.4985,W,1,8,1.19,5.3,M,-34.9,M,,*79
INFO:root:,2023-05-26T22:44:16,4.23,46,nan,$GNRMC,224416.000,A,3320.1094,N,11730.4985,W,0.88,273.86,260523,,,A*67
INFO:root:,2023-05-26T22:44:17,4.123,0,nan,$GNGGA,224417.000,3320.1097,N,11730.4989,W,1,8,1.19,5.3,M,-34.9,M,,*77
INFO:root:,2023-05-26T22:44:17,4.124,16,nan,$GNRMC,224417.000,A,3320.1097,N,11730.4989,W,1.36,310.88,260523,,,A*67
INFO:root:,2023-05-26T22:44:18,4.038,30,nan,$GNGGA,224418.000,3320.1098,N,11730.4994,W,1,8,1.19,5.3,M,-34.9,M,,*7B
INFO:root:,2023-05-26T22:44:18,4.006,0,nan,$GNRMC,224418.000,A,3320.1098,N,11730.4994,W,1.72,295.71,260523,,,A*61
INFO:root:,2023-05-26T22:44:19,4.023,0,nan,$GNGGA,224419.000,3320.1101,N,11730.4999,W,1,8,1.19,5.3,M,-34.9,M,,*76
INFO:root:,2023-05-26T22:44:19,3.203,0,nan,$GNRMC,224419.000,A,3320.1101,N,11730.4999,W,1.66,303.41,260523,,,A*64
INFO:root:,2023-05-26T22:44:20,4.165,0,nan,$GNGGA,224420.000,3320.1104,N,11730.5004,W,1,8,1.19,5.4,M,-34.9,M,,*72
INFO:root:,2023-05-26T22:44:20,5.295,0,nan,$GNRMC,224420.000,A,3320.1104,N,11730.5004,W,1.32,294.59,260523,,,A*60
INFO:root:,2023-05-26T22:44:21,5.629,0,nan,$GNGGA,224421.000,3320.1107,N,11730.5008,W,1,8,1.19,5.4,M,-34.9,M,,*7C
INFO:root:,2023-05-26T22:44:21,1.641,52,nan,$GNRMC,224421.000,A,3320.1107,N,11730.5008,W,1.29,297.39,260523,,,A*61
INFO:root:,2023-05-26T22:44:22,1.719,57,nan,$GNGGA,224422.000,3320.1110,N,11730.5013,W,1,7,1.19,5.4,M,-34.9,M,,*7C
INFO:root:,2023-05-26T22:44:22,1.891,51,nan,$GNRMC,224422.000,A,3320.1110,N,11730.5013,W,1.46,299.65,260523,,,A*60
INFO:root:,2023-05-26T22:44:23,2.065,55,nan,$GNGGA,224423.000,3320.1109,N,11730.5017,W,1,7,1.19,5.5,M,-34.9,M,,*70
INFO:root:,2023-05-26T22:44:23,2.322,56,nan,$GNRMC,224423.000,A,3320.1109,N,11730.5017,W,1.49,291.54,260523,,,A*68
INFO:root:,2023-05-26T22:44:24,2.508,43,nan,$GNGGA,224424.000,3320.1111,N,11730.5017,W,1,7,1.19,5.5,M,-34.9,M,,*7E
INFO:root:,2023-05-26T22:44:24,2.612,18,nan,$GNRMC,224424.000,A,3320.1111,N,11730.5017,W,1.30,293.68,260523,,,A*65
INFO:root:,2023-05-26T22:44:25,2.761,23,nan,$GNGGA,224425.000,3320.1113,N,11730.5021,W,1,7,1.19,5.5,M,-34.9,M,,*78
INFO:root:,2023-05-26T22:44:25,3.11,19,nan,$GNRMC,224425.000,A,3320.1113,N,11730.5021,W,1.66,241.44,260523,,,A*61
INFO:root:,2023-05-26T22:44:26,3.292,0,nan,$GNGGA,224426.000,3320.1110,N,11730.5025,W,1,7,1.19,5.6,M,-34.9,M,,*7F
INFO:root:,2023-05-26T22:44:26,3.369,11,nan,$GNRMC,224426.000,A,3320.1110,N,11730.5025,W,1.39,232.34,260523,,,A*6C
INFO:root:,2023-05-26T22:44:27,4.096,10,nan,$GNGGA,224427.000,3320.1107,N,11730.5027,W,1,7,1.19,5.7,M,-34.9,M,,*7B
INFO:root:,2023-05-26T22:44:27,4.235,0,nan,$GNRMC,224427.000,A,3320.1107,N,11730.5027,W,1.31,216.09,260523,,,A*69
INFO:root:,2023-05-26T22:44:28,4.792,9,nan,$GNGGA,224428.000,3320.1105,N,11730.5030,W,1,7,1.19,5.8,M,-34.9,M,,*7F
INFO:root:,2023-05-26T22:44:28,5.285,0,nan,$GNRMC,224428.000,A,3320.1105,N,11730.5030,W,1.28,224.68,260523,,,A*6C
INFO:root:,2023-05-26T22:44:29,5.748,0,nan,$GNGGA,224429.000,3320.1102,N,11730.5033,W,1,7,1.19,6.0,M,-34.9,M,,*71
INFO:root:,2023-05-26T22:44:29,6.591,8,nan,$GNRMC,224429.000,A,3320.1102,N,11730.5033,W,0.91,258.68,260523,,,A*61
INFO:root:,2023-05-26T22:44:30,7.542,0,nan,$GNGGA,224430.000,3320.1101,N,11730.5035,W,1,7,1.19,5.9,M,-34.9,M,,*76
INFO:root:,2023-05-26T22:44:30,7.314,0,nan,$GNRMC,224430.000,A,3320.1101,N,11730.5035,W,0.71,244.88,260523,,,A*61
INFO:root:,2023-05-26T22:44:31,8.726,0,nan,$GNGGA,224431.000,3320.1101,N,11730.5037,W,1,7,1.19,5.9,M,-34.9,M,,*75
INFO:root:,2023-05-26T22:44:31,8.153,0,nan,$GNRMC,224431.000,A,3320.1101,N,11730.5037,W,0.65,233.40,260523,,,A*63
INFO:root:,2023-05-26T22:44:32,8.021,0,nan,$GNGGA,224432.000,3320.1097,N,11730.5038,W,1,7,1.19,5.9,M,-34.9,M,,*77
INFO:root:,2023-05-26T22:44:32,7.591,0,nan,$GNRMC,224432.000,A,3320.1097,N,11730.5038,W,0.73,207.43,260523,,,A*62
INFO:root:,2023-05-26T22:44:33,7.285,0,nan,$GNGGA,224433.000,3320.1091,N,11730.5037,W,1,7,1.19,5.9,M,-34.9,M,,*7F
INFO:root:,2023-05-26T22:44:33,5.023,0,nan,$GNRMC,224433.000,A,3320.1091,N,11730.5037,W,1.02,190.56,260523,,,A*64
INFO:root:,2023-05-26T22:44:34,4.37,0,nan,$GNGGA,224434.000,3320.1087,N,11730.5036,W,1,7,1.19,5.8,M,-34.9,M,,*7F
INFO:root:,2023-05-26T22:44:34,6.404,0,nan,$GNRMC,224434.000,A,3320.1087,N,11730.5036,W,1.01,186.85,260523,,,A*6F
INFO:root:,2023-05-26T22:44:35,6.164,0,nan,$GNGGA,224435.000,3320.1082,N,11730.5036,W,1,7,1.19,5.8,M,-34.9,M,,*7B
INFO:root:,2023-05-26T22:44:35,1.695,55,nan,$GNRMC,224435.000,A,3320.1082,N,11730.5036,W,1.27,240.51,260523,,,A*6F
INFO:root:,2023-05-26T22:44:36,1.848,58,nan,$GNGGA,224436.000,3320.1082,N,11730.5039,W,1,7,1.19,5.8,M,-34.9,M,,*77
INFO:root:,2023-05-26T22:44:36,1.991,53,nan,$GNRMC,224436.000,A,3320.1082,N,11730.5039,W,1.52,302.92,260523,,,A*69
INFO:root:,2023-05-26T22:44:37,2.312,51,nan,$GNGGA,224437.000,3320.1078,N,11730.5040,W,1,7,1.19,5.7,M,-34.9,M,,*72
INFO:root:,2023-05-26T22:44:37,2.508,36,nan,$GNRMC,224437.000,A,3320.1078,N,11730.5040,W,0.54,302.92,260523,,,A*64
INFO:root:,2023-05-26T22:44:38,2.808,36,nan,$GNGGA,224438.000,3320.1076,N,11730.5041,W,1,7,1.19,5.7,M,-34.9,M,,*72
INFO:root:,2023-05-26T22:44:38,3.866,59,nan,$GNRMC,224438.000,A,3320.1076,N,11730.5041,W,0.80,189.28,260523,,,A*6D
INFO:root:,2023-05-26T22:44:39,3.866,39,nan,$GNGGA,224439.000,3320.1076,N,11730.5044,W,1,7,1.19,5.7,M,-34.9,M,,*76
INFO:root:,2023-05-26T22:44:39,4.776,21,nan,$GNRMC,224439.000,A,3320.1076,N,11730.5044,W,0.87,199.24,260523,,,A*63
INFO:root:,2023-05-26T22:44:40,5.402,19,nan,$GNGGA,224440.000,3320.1074,N,11730.5046,W,1,7,1.19,5.7,M,-34.9,M,,*78
INFO:root:,2023-05-26T22:44:40,5.301,0,nan,$GNRMC,224440.000,A,3320.1074,N,11730.5046,W,0.68,227.97,260523,,,A*62
INFO:root:,2023-05-26T22:44:41,1.626,51,nan,$GNGGA,224441.000,3320.1074,N,11730.5048,W,1,7,1.19,5.6,M,-34.9,M,,*76
INFO:root:,2023-05-26T22:44:41,1.67,53,nan,$GNRMC,224441.000,A,3320.1074,N,11730.5048,W,0.59,276.04,260523,,,A*61
INFO:root:,2023-05-26T22:44:42,1.772,51,nan,$GNGGA,224442.000,3320.1073,N,11730.5052,W,1,7,1.19,5.6,M,-34.9,M,,*79
INFO:root:,2023-05-26T22:44:42,1.963,54,nan,$GNRMC,224442.000,A,3320.1073,N,11730.5052,W,1.52,238.90,260523,,,A*63
INFO:root:,2023-05-26T22:44:43,2.149,47,nan,$GNGGA,224443.000,3320.1068,N,11730.5054,W,1,7,1.19,5.6,M,-34.9,M,,*74
INFO:root:,2023-05-26T22:44:43,2.494,24,nan,$GNRMC,224443.000,A,3320.1068,N,11730.5054,W,1.38,229.91,260523,,,A*63
INFO:root:,2023-05-26T22:44:44,2.605,31,nan,$GNGGA,224444.000,3320.1062,N,11730.5057,W,1,7,1.19,5.6,M,-34.9,M,,*7A
INFO:root:,2023-05-26T22:44:44,2.81,10,nan,$GNRMC,224444.000,A,3320.1062,N,11730.5057,W,1.75,220.37,260523,,,A*61
INFO:root:,2023-05-26T22:44:45,3.171,20,nan,$GNGGA,224445.000,3320.1058,N,11730.5060,W,1,7,1.19,5.6,M,-34.9,M,,*76
INFO:root:,2023-05-26T22:44:45,3.402,0,nan,$GNRMC,224445.000,A,3320.1058,N,11730.5060,W,1.88,197.82,260523,,,A*6E
INFO:root:,2023-05-26T22:44:46,11.404,50,nan,$GNGGA,224446.000,3320.1054,N,11730.5063,W,1,7,1.19,5.6,M,-34.9,M,,*7A
INFO:root:,2023-05-26T22:44:46,1.556,52,nan,$GNRMC,224446.000,A,3320.1054,N,11730.5063,W,1.47,235.28,260523,,,A*6A
INFO:root:,2023-05-26T22:44:47,1.573,56,nan,$GNGGA,224447.000,3320.1053,N,11730.5067,W,1,7,1.19,5.7,M,-34.9,M,,*79
INFO:root:,2023-05-26T22:44:47,1.719,49,nan,$GNRMC,224447.000,A,3320.1053,N,11730.5067,W,1.41,248.60,260523,,,A*68
INFO:root:,2023-05-26T22:44:48,1.618,43,nan,$GNGGA,224448.000,3320.1051,N,11730.5069,W,1,7,1.19,5.7,M,-34.9,M,,*7A
INFO:root:,2023-05-26T22:44:48,1.837,42,nan,$GNRMC,224448.000,A,3320.1051,N,11730.5069,W,0.81,165.49,260523,,,A*61
INFO:root:,2023-05-26T22:44:49,2.098,21,nan,$GNGGA,224449.000,3320.1050,N,11730.5067,W,1,7,1.19,5.8,M,-34.9,M,,*7B
INFO:root:,2023-05-26T22:44:49,2.325,19,nan,$GNRMC,224449.000,A,3320.1050,N,11730.5067,W,1.04,122.45,260523,,,A*6C
INFO:root:,2023-05-26T22:44:50,2.462,36,nan,$GNGGA,224450.000,3320.1048,N,11730.5065,W,1,7,1.19,5.9,M,-34.9,M,,*79
INFO:root:,2023-05-26T22:44:50,2.796,41,nan,$GNRMC,224450.000,A,3320.1048,N,11730.5065,W,0.59,143.97,260523,,,A*6E
INFO:root:,2023-05-26T22:44:51,3.125,18,nan,$GNGGA,224451.000,3320.1045,N,11730.5067,W,1,7,1.19,5.9,M,-34.9,M,,*77
INFO:root:,2023-05-26T22:44:51,2.788,7,nan,$GNRMC,224451.000,A,3320.1045,N,11730.5067,W,1.51,207.69,260523,,,A*6B
INFO:root:,2023-05-26T22:44:52,3.623,0,nan,$GNGGA,224452.000,3320.1039,N,11730.5072,W,1,7,1.19,5.9,M,-34.9,M,,*7B
INFO:root:,2023-05-26T22:44:52,3.776,0,nan,$GNRMC,224452.000,A,3320.1039,N,11730.5072,W,2.72,232.25,260523,,,A*6B
INFO:root:,2023-05-26T22:44:53,3.936,0,nan,$GNGGA,224453.000,3320.1030,N,11730.5079,W,1,7,1.19,5.9,M,-34.9,M,,*78
INFO:root:,2023-05-26T22:44:53,4.426,0,nan,$GNRMC,224453.000,A,3320.1030,N,11730.5079,W,3.34,227.00,260523,,,A*68
INFO:root:,2023-05-26T22:44:54,4.37,0,nan,$GNGGA,224454.000,3320.1021,N,11730.5086,W,1,7,1.19,5.9,M,-34.9,M,,*7F
INFO:root:,2023-05-26T22:44:54,4.701,0,nan,$GNGGA,224454.000,3320.1021,N,11730.5086,W,1,7,1.19,5.9,M,-34.9,M,,*7F
INFO:root:,2023-05-26T22:46:06,5.259,0,nan,$GNGGA,224606.000,3320.0920,N,11730.5257,W,1,7,1.20,-1.1,M,-34.9,M,,*56
INFO:root:,2023-05-26T22:46:06,4.938,0,nan,$GNRMC,224606.000,A,3320.0920,N,11730.5257,W,0.05,3.39,260523,,,A*62
INFO:root:,2023-05-26T22:46:07,5.165,0,nan,$GNGGA,224607.000,3320.0917,N,11730.5257,W,1,7,1.19,-1.1,M,-34.9,M,,*59
INFO:root:,2023-05-26T22:46:07,32.563,54,nan,$GNRMC,224607.000,A,3320.0917,N,11730.5257,W,0.08,3.39,260523,,,A*6A
INFO:root:,2023-05-26T22:46:08,32.745,55,nan,$GNGGA,224608.000,3320.0914,N,11730.5256,W,1,7,1.19,-1.2,M,-34.9,M,,*57
INFO:root:,2023-05-26T22:46:08,34.216,58,nan,$GNRMC,224608.000,A,3320.0914,N,11730.5256,W,0.07,3.39,260523,,,A*68
INFO:root:,2023-05-26T22:46:09,1.6,50,nan,$GNGGA,224609.000,3320.0924,N,11730.5242,W,1,7,1.20,-1.3,M,-34.9,M,,*5B
INFO:root:,2023-05-26T22:46:09,1.72,44,nan,$GNRMC,224609.000,A,3320.0924,N,11730.5242,W,3.93,44.55,260523,,,A*58
INFO:root:,2023-05-26T22:46:10,1.931,51,nan,$GNGGA,224610.000,3320.0911,N,11730.5221,W,1,7,1.19,-1.5,M,-34.9,M,,*5C
INFO:root:,2023-05-26T22:46:10,2.137,55,nan,$GNRMC,224610.000,A,3320.0911,N,11730.5221,W,3.36,49.70,260523,,,A*56
INFO:root:,2023-05-26T22:46:11,2.435,59,nan,$GNGGA,224611.000,3320.0909,N,11730.5208,W,1,7,1.19,-1.9,M,-34.9,M,,*53
INFO:root:,2023-05-26T22:46:11,2.662,55,nan,$GNRMC,224611.000,A,3320.0909,N,11730.5208,W,2.29,49.70,260523,,,A*5A
INFO:root:,2023-05-26T22:46:12,2.549,23,nan,$GNGGA,224612.000,3320.0913,N,11730.5197,W,1,7,1.20,-2.2,M,-34.9,M,,*5C
INFO:root:,2023-05-26T22:46:12,3.119,19,nan,$GNRMC,224612.000,A,3320.0913,N,11730.5197,W,3.07,42.59,260523,,,A*5A
INFO:root:,2023-05-26T22:46:13,3.337,0,nan,$GNGGA,224613.000,3320.0917,N,11730.5186,W,1,7,1.20,-2.5,M,-34.9,M,,*5E
INFO:root:,2023-05-26T22:46:13,3.386,0,nan,$GNRMC,224613.000,A,3320.0917,N,11730.5186,W,3.15,58.38,260523,,,A*50
INFO:root:,2023-05-26T22:46:14,3.915,0,99.49,$GNGGA,224614.000,3320.0918,N,11730.5175,W,1,7,1.20,-2.8,M,-34.9,M,,*57
INFO:root:,2023-05-26T22:46:14,4.49,8,99.32,$GNRMC,224614.000,A,3320.0918,N,11730.5175,W,2.58,58.38,260523,,,A*5C
INFO:root:,2023-05-26T22:46:15,4.453,0,99.54,$GNGGA,224615.000,3320.0924,N,11730.5172,W,1,7,1.19,-3.3,M,-34.9,M,,*5E
INFO:root:,2023-05-26T22:46:15,5.163,7,99.66,$GNRMC,224615.000,A,3320.0924,N,11730.5172,W,2.39,58.38,260523,,,A*52
INFO:root:,2023-05-26T22:46:16,1.66,51,99.85,$GNGGA,224616.000,3320.0929,N,11730.5169,W,1,7,1.19,-3.6,M,-34.9,M,,*5F
INFO:root:,2023-05-26T22:46:16,1.722,52,99.65,$GNRMC,224616.000,A,3320.0929,N,11730.5169,W,1.88,58.38,260523,,,A*5F
INFO:root:,2023-05-26T22:46:17,1.695,51,99.42,$GNGGA,224617.000,3320.0932,N,11730.5167,W,1,7,1.20,-3.8,M,-34.9,M,,*5E
INFO:root:,2023-05-26T22:46:17,1.822,42,99.31,$GNRMC,224617.000,A,3320.0932,N,11730.5167,W,0.11,58.38,260523,,,A*5B
INFO:root:,2023-05-26T22:46:18,2.043,30,99.33,$GNGGA,224618.000,3320.0931,N,11730.5165,W,1,7,1.19,-3.9,M,-34.9,M,,*5B
INFO:root:,2023-05-26T22:46:18,2.127,23,99.24,$GNRMC,224618.000,A,3320.0931,N,11730.5165,W,0.06,58.38,260523,,,A*53
INFO:root:,2023-05-26T22:46:19,2.443,64,99.26,$GNGGA,224619.000,3320.0933,N,11730.5165,W,1,7,1.19,-4.2,M,-34.9,M,,*54
INFO:root:,2023-05-26T22:46:19,2.764,38,99.28,$GNRMC,224619.000,A,3320.0933,N,11730.5165,W,0.06,58.38,260523,,,A*50
INFO:root:,2023-05-26T22:46:20,3.004,19,99.49,$GNGGA,224620.000,3320.0935,N,11730.5170,W,1,7,1.19,-4.2,M,-34.9,M,,*5C
INFO:root:,2023-05-26T22:46:20,3.326,29,99.42,$GNRMC,224620.000,A,3320.0935,N,11730.5170,W,0.10,58.38,260523,,,A*5F
INFO:root:,2023-05-26T22:46:21,3.52,16,99.36,$GNGGA,224621.000,3320.0937,N,11730.5176,W,1,7,1.20,-4.4,M,-34.9,M,,*55
INFO:root:,2023-05-26T22:46:21,3.96,0,99.38,$GNRMC,224621.000,A,3320.0937,N,11730.5176,W,0.17,58.38,260523,,,A*5D
INFO:root:,2023-05-26T22:46:22,4.374,10,99.46,$GNGGA,224622.000,3320.0939,N,11730.5185,W,1,7,1.19,-4.2,M,-34.9,M,,*58
INFO:root:,2023-05-26T22:46:22,4.967,21,99.55,$GNRMC,224622.000,A,3320.0939,N,11730.5185,W,0.22,58.38,260523,,,A*5A
INFO:root:,2023-05-26T22:46:23,33.683,50,99.0,$GNGGA,224623.000,3320.0941,N,11730.5192,W,1,7,1.20,-3.9,M,-34.9,M,,*56
INFO:root:,2023-05-26T22:46:23,33.63,51,98.62,$GNRMC,224623.000,A,3320.0941,N,11730.5192,W,0.18,58.38,260523,,,A*5B
INFO:root:,2023-05-26T22:46:24,33.949,45,98.79,$GNGGA,224624.000,3320.0940,N,11730.5200,W,1,7,1.20,-3.7,M,-34.9,M,,*56
INFO:root:,2023-05-26T22:46:24,3.894,61,99.12,$GNRMC,224624.000,A,3320.0940,N,11730.5200,W,0.27,58.38,260523,,,A*59
INFO:root:,2023-05-26T22:46:25,4.303,51,99.45,$GNGGA,224625.000,3320.0940,N,11730.5213,W,1,7,1.20,-3.6,M,-34.9,M,,*54
INFO:root:,2023-05-26T22:46:25,4.556,20,99.53,$GNRMC,224625.000,A,3320.0940,N,11730.5213,W,0.33,58.38,260523,,,A*5F
INFO:root:,2023-05-26T22:46:26,4.978,29,99.55,$GNGGA,224626.000,3320.0938,N,11730.5221,W,1,7,1.20,-3.5,M,-34.9,M,,*5A
INFO:root:,2023-05-26T22:46:26,1.537,62,99.49,$GNRMC,224626.000,A,3320.0938,N,11730.5221,W,0.22,58.38,260523,,,A*52
INFO:root:,2023-05-26T22:46:27,1.546,63,99.56,$GNGGA,224627.000,3320.0936,N,11730.5226,W,1,7,1.19,-3.4,M,-34.9,M,,*59
INFO:root:,2023-05-26T22:46:27,1.743,52,99.63,$GNRMC,224627.000,A,3320.0936,N,11730.5226,W,2.20,238.17,260523,,,A*63
INFO:root:,2023-05-26T22:46:28,1.931,40,nan,$GNGGA,224628.000,3320.0929,N,11730.5230,W,6,2,99.99,-3.3,M,-34.9,M,,*63
INFO:root:,2023-05-26T22:46:28,2.152,15,nan,$GNRMC,224628.000,V,,,,,2.19,233.36,260523,,,E*5D
INFO:root:,2023-05-26T22:46:29,2.455,14,nan,$GNGGA,224629.000,3320.0933,N,11730.5224,W,1,5,1.46,-3.4,M,-34.9,M,,*58
INFO:root:,2023-05-26T22:46:29,2.767,12,nan,$GNRMC,224629.000,A,3320.0933,N,11730.5224,W,0.76,344.72,260523,,,A*62
INFO:root:,2023-05-26T22:46:30,3.022,37,nan,$GNGGA,224630.000,3320.0932,N,11730.5219,W,1,7,1.19,-3.5,M,-34.9,M,,*56
INFO:root:,2023-05-26T22:46:30,3.331,10,nan,$GNRMC,224630.000,A,3320.0932,N,11730.5219,W,0.53,344.72,260523,,,A*62
INFO:root:,2023-05-26T22:46:31,3.75,30,nan,$GNGGA,224631.000,3320.0946,N,11730.5218,W,1,7,1.20,-3.6,M,-34.9,M,,*5C
INFO:root:,2023-05-26T22:46:31,3.613,0,nan,$GNRMC,224631.000,A,3320.0946,N,11730.5218,W,1.35,21.49,260523,,,A*58
INFO:root:,2023-05-26T22:46:32,3.774,0,nan,$GNGGA,224632.000,3320.0953,N,11730.5217,W,1,6,1.42,-3.6,M,-34.9,M,,*51
INFO:root:,2023-05-26T22:46:32,3.611,0,nan,$GNRMC,224632.000,A,3320.0953,N,11730.5217,W,1.40,20.04,260523,,,A*5A
INFO:root:,2023-05-26T22:46:33,4.0,0,nan,$GNGGA,224633.000,3320.0958,N,11730.5215,W,1,7,1.20,-3.6,M,-34.9,M,,*5C
INFO:root:,2023-05-26T22:46:33,3.838,0,nan,$GNRMC,224633.000,A,3320.0958,N,11730.5215,W,1.13,3.83,260523,,,A*6A
INFO:root:,2023-05-26T22:46:34,3.684,0,nan,$GNGGA,224634.000,3320.0966,N,11730.5218,W,1,7,1.19,-3.6,M,-34.9,M,,*51
INFO:root:,2023-05-26T22:46:34,3.736,0,nan,$GNRMC,224634.000,A,3320.0966,N,11730.5218,W,1.72,339.54,260523,,,A*6A
INFO:root:,2023-05-26T22:46:35,3.744,0,nan,$GNGGA,224635.000,3320.0966,N,11730.5218,W,1,7,1.20,-3.6,M,-34.9,M,,*5A
INFO:root:,2023-05-26T22:46:35,4.292,9,nan,$GNRMC,224635.000,A,3320.0966,N,11730.5218,W,0.67,322.37,260523,,,A*61
INFO:root:,2023-05-26T22:46:36,4.637,8,nan,$GNGGA,224636.000,3320.0966,N,11730.5221,W,1,7,1.20,-3.6,M,-34.9,M,,*53
INFO:root:,2023-05-26T22:46:36,11.898,54,nan,$GNRMC,224636.000,A,3320.0966,N,11730.5221,W,0.70,262.34,260523,,,A*68
INFO:root:,2023-05-26T22:46:37,11.898,54,nan,$GNGGA,224637.000,3320.0965,N,11730.5226,W,1,7,1.20,-3.7,M,-34.9,M,,*57
INFO:root:,2023-05-26T22:46:37,1.587,58,nan,$GNRMC,224637.000,A,3320.0965,N,11730.5226,W,1.43,262.68,260523,,,A*65
INFO:root:,2023-05-26T22:46:38,1.616,64,nan,$GNGGA,224638.000,3320.0961,N,11730.5227,W,1,7,1.20,-3.8,M,-34.9,M,,*52
INFO:root:,2023-05-26T22:46:38,1.645,66,nan,$GNRMC,224638.000,A,3320.0961,N,11730.5227,W,1.18,262.68,260523,,,A*61
INFO:root:,2023-05-26T22:46:39,1.75,62,nan,$GNGGA,224639.000,3320.0963,N,11730.5232,W,1,7,1.20,-3.8,M,-34.9,M,,*55
INFO:root:,2023-05-26T22:46:39,1.846,62,nan,$GNRMC,224639.000,A,3320.0963,N,11730.5232,W,1.13,262.68,260523,,,A*6D
INFO:root:,2023-05-26T22:46:40,2.083,55,nan,$GNGGA,224640.000,3320.0959,N,11730.5241,W,1,7,1.20,-3.9,M,-34.9,M,,*57
INFO:root:,2023-05-26T22:46:40,2.307,51,nan,$GNRMC,224640.000,A,3320.0959,N,11730.5241,W,2.50,262.68,260523,,,A*6A
INFO:root:,2023-05-26T22:46:41,2.627,30,nan,$GNGGA,224641.000,3320.0946,N,11730.5251,W,1,7,1.20,-4.0,M,-34.9,M,,*57
INFO:root:,2023-05-26T22:46:41,2.888,35,nan,$GNRMC,224641.000,A,3320.0946,N,11730.5251,W,2.88,262.68,260523,,,A*61
INFO:root:,2023-05-26T22:46:42,3.437,0,nan,$GNGGA,224642.000,3320.0940,N,11730.5259,W,1,7,1.20,-4.0,M,-34.9,M,,*5A
INFO:root:,2023-05-26T22:46:42,3.164,0,nan,$GNRMC,224642.000,A,3320.0940,N,11730.5259,W,2.42,262.68,260523,,,A*6A
INFO:root:,2023-05-26T22:46:43,3.243,0,nan,$GNGGA,224643.000,3320.0933,N,11730.5266,W,1,7,1.20,-4.1,M,-34.9,M,,*52
INFO:root:,2023-05-26T22:46:43,2.962,0,nan,$GNRMC,224643.000,A,3320.0933,N,11730.5266,W,2.35,262.68,260523,,,A*63
INFO:root:,2023-05-26T22:46:44,2.246,0,nan,$GNGGA,224644.000,3320.0921,N,11730.5269,W,1,7,1.20,-3.9,M,-34.9,M,,*56
INFO:root:,2023-05-26T22:46:44,32.098,51,nan,$GNRMC,224644.000,A,3320.0921,N,11730.5269,W,2.16,262.68,260523,,,A*69
INFO:root:,2023-05-26T22:46:45,31.811,56,nan,$GNGGA,224645.000,3320.0913,N,11730.5270,W,1,5,1.31,-3.8,M,-34.9,M,,*5D
INFO:root:,2023-05-26T22:46:45,1.599,55,nan,$GNRMC,224645.000,A,3320.0913,N,11730.5270,W,2.12,262.68,260523,,,A*65
INFO:root:,2023-05-26T22:46:46,1.635,56,nan,$GNGGA,224646.000,3320.0915,N,11730.5272,W,1,5,1.31,-3.8,M,-34.9,M,,*5A
INFO:root:,2023-05-26T22:46:46,1.73,61,nan,$GNRMC,224646.000,A,3320.0915,N,11730.5272,W,1.26,262.68,260523,,,A*66
INFO:root:,2023-05-26T22:46:46,1.882,52,nan,$GNGGA,224647.000,,,,,0,0,,,M,,M,,*57
INFO:root:,2023-05-26T22:46:46,2.021,23,nan,$GNRMC,224647.000,V,,,,,1.05,262.68,260523,,,N*5E
INFO:root:,2023-05-26T22:46:46,2.223,22,nan,$GNGGA,224648.000,,,,,0,0,,,M,,M,,*58
INFO:root:,2023-05-26T22:46:46,2.494,10,nan,$GNRMC,224648.000,V,,,,,0.00,262.68,260523,,,N*55
INFO:root:,2023-05-26T22:46:49,2.716,0,nan,$GNGGA,224649.000,3320.0911,N,11730.5260,W,1,4,1.39,-3.7,M,-34.9,M,,*54
INFO:root:,2023-05-26T22:46:49,2.84,0,99.9,$GNRMC,224649.000,A,3320.0911,N,11730.5260,W,0.13,262.68,260523,,,A*69
INFO:root:,2023-05-26T22:46:50,3.388,18,99.55,$GNGGA,224650.000,3320.0915,N,11730.5253,W,1,4,1.39,-3.7,M,-34.9,M,,*58
INFO:root:,2023-05-26T22:46:50,3.796,0,99.11,$GNRMC,224650.000,A,3320.0915,N,11730.5253,W,0.15,262.68,260523,,,A*63
INFO:root:,2023-05-26T22:46:51,4.154,0,98.89,$GNGGA,224651.000,3320.0909,N,11730.5252,W,1,4,1.39,-3.7,M,-34.9,M,,*55
INFO:root:,2023-05-26T22:46:51,4.689,7,98.66,$GNRMC,224651.000,A,3320.0909,N,11730.5252,W,0.14,262.68,260523,,,A*6F
INFO:root:,2023-05-26T22:46:52,5.1,20,98.81,$GNGGA,224652.000,3320.0912,N,11730.5269,W,1,4,1.39,-3.7,M,-34.9,M,,*54
INFO:root:,2023-05-26T22:46:52,5.543,8,99.03,$GNRMC,224652.000,A,3320.0912,N,11730.5269,W,0.15,262.68,260523,,,A*6F
INFO:root:,2023-05-26T22:46:53,6.071,9,99.1,$GNGGA,224653.000,3320.0913,N,11730.5278,W,1,5,1.28,-3.9,M,-34.9,M,,*5B
INFO:root:,2023-05-26T22:46:53,1.601,51,98.94,$GNRMC,224653.000,A,3320.0913,N,11730.5278,W,0.14,262.68,260523,,,A*6E
INFO:root:,2023-05-26T22:46:54,1.635,49,98.79,$GNGGA,224654.000,3320.0911,N,11730.5283,W,1,6,1.24,-4.0,M,-34.9,M,,*5B
INFO:root:,2023-05-26T22:46:54,1.758,47,98.27,$GNRMC,224654.000,A,3320.0911,N,11730.5283,W,0.19,262.68,260523,,,A*62
INFO:root:,2023-05-26T22:46:55,1.903,39,97.67,$GNGGA,224655.000,3320.0912,N,11730.5291,W,1,6,1.24,-4.1,M,-34.9,M,,*5B
INFO:root:,2023-05-26T22:46:55,2.063,36,97.37,$GNRMC,224655.000,A,3320.0912,N,11730.5291,W,0.20,262.68,260523,,,A*69
INFO:root:,2023-05-26T22:46:56,2.382,17,97.5,$GNGGA,224656.000,3320.0916,N,11730.5303,W,1,6,1.24,-4.2,M,-34.9,M,,*55
INFO:root:,2023-05-26T22:46:56,2.669,16,97.5,$GNRMC,224656.000,A,3320.0916,N,11730.5303,W,0.27,262.68,260523,,,A*63
INFO:root:,2023-05-26T22:46:57,2.973,0,97.5,$GNGGA,224657.000,3320.0910,N,11730.5298,W,1,7,1.20,-4.2,M,-34.9,M,,*54
INFO:root:,2023-05-26T22:46:57,3.188,0,97.97,$GNRMC,224657.000,A,3320.0910,N,11730.5298,W,0.20,262.68,260523,,,A*60
INFO:root:,2023-05-26T22:46:58,2.762,0,98.45,$GNGGA,224658.000,3320.0904,N,11730.5309,W,1,7,1.20,-4.5,M,-34.9,M,,*50
INFO:root:,2023-05-26T22:46:58,3.221,0,99.4,$GNRMC,224658.000,A,3320.0904,N,11730.5309,W,2.38,224.31,260523,,,A*66
INFO:root:,2023-05-26T22:46:59,3.591,0,99.95,$GNGGA,224659.000,3320.0894,N,11730.5302,W,1,7,1.20,-4.7,M,-34.9,M,,*50
INFO:root:,2023-05-26T22:46:59,3.975,0,nan,$GNRMC,224659.000,A,3320.0894,N,11730.5302,W,2.10,226.66,260523,,,A*6E
INFO:root:,2023-05-26T22:47:00,4.319,0,nan,$GNGGA,224700.000,3320.0883,N,11730.5303,W,1,7,1.20,-4.8,M,-34.9,M,,*55
INFO:root:,2023-05-26T22:47:00,4.956,20,nan,$GNRMC,224700.000,A,3320.0883,N,11730.5303,W,3.75,234.72,260523,,,A*60
INFO:root:,2023-05-26T22:47:01,3.613,0,99.78,$GNGGA,224701.000,3320.0875,N,11730.5313,W,1,7,1.20,-5.1,M,-34.9,M,,*54
INFO:root:,2023-05-26T22:47:01,3.579,0,99.59,$GNRMC,224701.000,A,3320.0875,N,11730.5313,W,4.21,243.51,260523,,,A*6E
INFO:root:,2023-05-26T22:47:02,4.552,0,99.7,$GNGGA,224702.000,3320.0872,N,11730.5319,W,1,5,1.91,-5.3,M,-34.9,M,,*50
INFO:root:,2023-05-26T22:47:02,4.319,0,99.81,$GNRMC,224702.000,A,3320.0872,N,11730.5319,W,3.64,245.80,260523,,,A*6C
INFO:root:,2023-05-26T22:47:03,4.356,0,99.95,$GNGGA,224703.000,3320.0870,N,11730.5321,W,1,6,1.25,-5.5,M,-34.9,M,,*52
INFO:root:,2023-05-26T22:47:03,1.504,57,99.92,$GNRMC,224703.000,A,3320.0870,N,11730.5321,W,2.60,239.75,260523,,,A*60
INFO:root:,2023-05-26T22:47:04,1.62,57,99.9,$GNGGA,224704.000,3320.0880,N,11730.5312,W,1,7,1.20,-5.8,M,-34.9,M,,*53
INFO:root:,2023-05-26T22:47:04,1.692,56,nan,$GNRMC,224704.000,A,3320.0880,N,11730.5312,W,0.43,239.75,260523,,,A*6B
INFO:root:,2023-05-26T22:47:05,1.814,28,nan,$GNGGA,224705.000,3320.0875,N,11730.5313,W,1,7,1.20,-5.7,M,-34.9,M,,*56
INFO:root:,2023-05-26T22:47:05,1.938,8,nan,$GNRMC,224705.000,A,3320.0875,N,11730.5313,W,0.15,239.75,260523,,,A*62
INFO:root:,2023-05-26T22:47:06,2.015,0,nan,$GNGGA,224706.000,3320.0875,N,11730.5313,W,1,7,1.20,-5.7,M,-34.9,M,,*55
INFO:root:,2023-05-26T22:47:06,1.863,0,99.39,$GNRMC,224706.000,A,3320.0875,N,11730.5313,W,0.45,239.75,260523,,,A*64
INFO:root:,2023-05-26T22:47:07,1.704,0,99.06,$GNGGA,224707.000,3320.0873,N,11730.5316,W,1,7,1.20,-5.7,M,-34.9,M,,*57
INFO:root:,2023-05-26T22:47:07,2.29,0,99.16,$GNRMC,224707.000,A,3320.0873,N,11730.5316,W,0.72,239.75,260523,,,A*62
INFO:root:,2023-05-26T22:47:08,1.755,0,99.4,$GNGGA,224708.000,3320.0869,N,11730.5321,W,1,6,1.30,-5.8,M,-34.9,M,,*58
INFO:root:,2023-05-26T22:47:08,1.585,0,99.76,$GNRMC,224708.000,A,3320.0869,N,11730.5321,W,1.59,239.75,260523,,,A*6A
INFO:root:,2023-05-26T22:47:08,2.101,0,nan,$GNRMC,224708.000,A,3320.0869,N,11730.5321,W,1.59,239.75,260523,,,A*6A
INFO:root:,2023-05-26T22:48:25,2.172,0,nan,$GNGGA,224825.000,3320.0847,N,11730.5435,W,1,6,2.06,-15.0,M,-34.9,M,,*69
INFO:root:,2023-05-26T22:48:25,2.471,0,nan,$GNRMC,224825.000,A,3320.0847,N,11730.5435,W,1.81,75.53,260523,,,A*5F
INFO:root:,2023-05-26T22:48:26,2.574,0,nan,$GNGGA,224826.000,3320.0842,N,11730.5419,W,1,6,2.06,-15.0,M,-34.9,M,,*61
INFO:root:,2023-05-26T22:48:26,2.399,0,nan,$GNRMC,224826.000,A,3320.0842,N,11730.5419,W,1.74,84.89,260523,,,A*54
INFO:root:,2023-05-26T22:48:27,2.893,0,nan,$GNGGA,224827.000,3320.0843,N,11730.5415,W,6,2,99.99,-15.1,M,-34.9,M,,*5B
INFO:root:,2023-05-26T22:48:27,2.489,9,nan,$GNRMC,224827.000,V,,,,,1.19,77.55,260523,,,E*68
INFO:root:,2023-05-26T22:48:28,2.852,0,nan,$GNGGA,224828.000,3320.0821,N,11730.5399,W,1,3,14.19,-15.1,M,-34.9,M,,*58
INFO:root:,2023-05-26T22:48:28,3.231,0,nan,$GNRMC,224828.000,A,3320.0821,N,11730.5399,W,1.37,43.82,260523,,,A*57
INFO:root:,2023-05-26T22:48:29,3.658,25,nan,$GNGGA,224829.000,3320.0801,N,11730.5311,W,1,5,1.35,-13.6,M,-34.9,M,,*66
INFO:root:,2023-05-26T22:48:29,3.552,8,nan,$GNRMC,224829.000,A,3320.0801,N,11730.5311,W,2.65,345.50,260523,,,A*6A
INFO:root:,2023-05-26T22:48:30,3.766,0,nan,$GNGGA,224830.000,3320.0818,N,11730.5319,W,1,7,1.20,-11.8,M,-34.9,M,,*64
INFO:root:,2023-05-26T22:48:30,3.537,0,nan,$GNRMC,224830.000,A,3320.0818,N,11730.5319,W,1.44,336.21,260523,,,A*60
INFO:root:,2023-05-26T22:48:31,4.05,0,nan,$GNGGA,224831.000,3320.0830,N,11730.5326,W,1,7,1.20,-11.3,M,-34.9,M,,*68
INFO:root:,2023-05-26T22:48:31,4.751,9,nan,$GNRMC,224831.000,A,3320.0830,N,11730.5326,W,1.60,346.69,260523,,,A*6A
INFO:root:,2023-05-26T22:48:32,3.417,0,nan,$GNGGA,224832.000,3320.0832,N,11730.5334,W,1,7,1.20,-10.8,M,-34.9,M,,*60
INFO:root:,2023-05-26T22:48:32,4.088,0,nan,$GNRMC,224832.000,A,3320.0832,N,11730.5334,W,1.33,275.95,260523,,,A*6C
INFO:root:,2023-05-26T22:48:33,3.663,0,nan,$GNGGA,224833.000,3320.0824,N,11730.5337,W,1,7,1.20,-10.7,M,-34.9,M,,*6A
INFO:root:,2023-05-26T22:48:33,1.594,58,99.4,$GNRMC,224833.000,A,3320.0824,N,11730.5337,W,2.44,226.31,260523,,,A*62
INFO:root:,2023-05-26T22:48:34,1.726,55,99.16,$GNGGA,224834.000,3320.0820,N,11730.5326,W,1,7,1.20,-11.1,M,-34.9,M,,*6E
INFO:root:,2023-05-26T22:48:34,1.899,61,99.2,$GNRMC,224834.000,A,3320.0820,N,11730.5326,W,2.18,228.45,260523,,,A*65
INFO:root:,2023-05-26T22:48:35,2.109,65,99.25,$GNGGA,224835.000,3320.0829,N,11730.5326,W,1,7,1.20,-11.3,M,-34.9,M,,*64
INFO:root:,2023-05-26T22:48:35,2.293,67,99.07,$GNRMC,224835.000,A,3320.0829,N,11730.5326,W,1.65,226.40,260523,,,A*6F
INFO:root:,2023-05-26T22:48:36,2.439,43,98.85,$GNGGA,224836.000,3320.0823,N,11730.5328,W,1,7,1.20,-11.2,M,-34.9,M,,*62
INFO:root:,2023-05-26T22:48:36,2.819,50,98.78,$GNRMC,224836.000,A,3320.0823,N,11730.5328,W,2.10,209.07,260523,,,A*67
INFO:root:,2023-05-26T22:48:37,2.989,41,98.92,$GNGGA,224837.000,3320.0821,N,11730.5333,W,1,7,1.20,-11.0,M,-34.9,M,,*69
INFO:root:,2023-05-26T22:48:37,3.444,17,98.99,$GNRMC,224837.000,A,3320.0821,N,11730.5333,W,1.82,225.79,260523,,,A*61
INFO:root:,2023-05-26T22:48:38,3.89,8,98.93,$GNGGA,224838.000,3320.0820,N,11730.5338,W,1,7,1.20,-10.9,M,-34.9,M,,*64
INFO:root:,2023-05-26T22:48:38,4.221,0,98.78,$GNRMC,224838.000,A,3320.0820,N,11730.5338,W,1.57,228.20,260523,,,A*6D
INFO:root:,2023-05-26T22:48:39,4.285,0,98.65,$GNGGA,224839.000,3320.0814,N,11730.5343,W,1,7,1.20,-10.8,M,-34.9,M,,*6F
INFO:root:,2023-05-26T22:48:39,4.773,0,98.65,$GNRMC,224839.000,A,3320.0814,N,11730.5343,W,2.20,219.86,260523,,,A*6A
INFO:root:,2023-05-26T22:48:40,3.884,0,98.73,$GNGGA,224840.000,3320.0810,N,11730.5352,W,1,7,1.20,-10.6,M,-34.9,M,,*6B
INFO:root:,2023-05-26T22:48:40,3.963,0,98.64,$GNRMC,224840.000,A,3320.0810,N,11730.5352,W,2.54,236.82,260523,,,A*6A
INFO:root:,2023-05-26T22:48:41,3.979,0,98.6,$GNGGA,224841.000,3320.0805,N,11730.5351,W,1,7,1.20,-10.2,M,-34.9,M,,*69
INFO:root:,2023-05-26T22:48:41,4.42,0,98.6,$GNRMC,224841.000,A,3320.0805,N,11730.5351,W,1.93,236.82,260523,,,A*64
INFO:root:,2023-05-26T22:48:42,5.141,0,98.69,$GNGGA,224842.000,3320.0804,N,11730.5360,W,1,6,1.43,-10.1,M,-34.9,M,,*6E
INFO:root:,2023-05-26T22:48:42,5.827,0,98.5,$GNRMC,224842.000,A,3320.0804,N,11730.5360,W,2.27,236.82,260523,,,A*68
INFO:root:,2023-05-26T22:48:43,1.563,57,98.53,$GNGGA,224843.000,3320.0801,N,11730.5368,W,6,1,99.99,-10.1,M,-34.9,M,,*54
INFO:root:,2023-05-26T22:48:43,1.673,55,98.8,$GNRMC,224843.000,V,,,,,2.30,236.82,260523,,,E*5F
INFO:root:,2023-05-26T22:48:43,1.857,61,98.94,$GNGGA,224844.000,,,,,0,0,,,M,,M,,*5A
INFO:root:,2023-05-26T22:48:43,2.042,53,99.13,$GNRMC,224844.000,V,,,,,0.00,236.82,260523,,,N*52
INFO:root:,2023-05-26T22:48:43,2.211,58,99.15,$GNGGA,224845.000,,,,,0,0,,,M,,M,,*5B
INFO:root:,2023-05-26T22:48:43,2.403,46,99.17,$GNRMC,224845.000,V,,,,,0.00,236.82,260523,,,N*53
INFO:root:,2023-05-26T22:48:43,2.788,18,98.88,$GNGGA,224846.000,,,,,0,0,,,M,,M,,*58
INFO:root:,2023-05-26T22:48:43,3.107,8,98.74,$GNRMC,224846.000,V,,,,,0.00,236.82,260523,,,N*50
INFO:root:,2023-05-26T22:48:43,3.389,12,98.46,$GNGGA,224847.000,,,,,0,0,,,M,,M,,*59
INFO:root:,2023-05-26T22:48:43,3.765,26,98.66,$GNRMC,224847.000,V,,,,,0.00,236.82,260523,,,N*51
INFO:root:,2023-05-26T22:48:43,4.215,8,99.04,$GNGGA,224848.000,,,,,0,0,,,M,,M,,*56
INFO:root:,2023-05-26T22:48:43,4.425,26,99.32,$GNRMC,224848.000,V,,,,,0.04,236.82,260523,,,N*5A
INFO:root:,2023-05-26T22:48:43,4.607,22,99.79,$GNGGA,224849.000,,,,,0,0,,,M,,M,,*57
INFO:root:,2023-05-26T22:48:43,11.626,62,nan,$GNRMC,224849.000,V,,,,,0.06,236.82,260523,,,N*59
INFO:root:,2023-05-26T22:48:43,1.511,61,nan,$GNGGA,224850.000,,,,,0,0,,,M,,M,,*5F
INFO:root:,2023-05-26T22:48:43,1.582,60,nan,$GNRMC,224850.000,V,,,,,0.11,236.82,260523,,,N*57
INFO:root:,2023-05-26T22:48:43,1.628,57,99.93,$GNGGA,224851.000,,,,,0,0,,,M,,M,,*5E
INFO:root:,2023-05-26T22:48:43,1.777,63,99.44,$GNRMC,224851.000,V,,,,,0.11,236.82,260523,,,N*56
INFO:root:,2023-05-26T22:48:43,12.131,53,99.2,$GNGGA,224852.000,,,,,0,0,,,M,,M,,*5D
INFO:root:,2023-05-26T22:48:43,11.816,50,98.71,$GNRMC,224852.000,V,,,,,0.17,236.82,260523,,,N*53
INFO:root:,2023-05-26T22:48:43,13.084,50,98.49,$GNGGA,224853.000,,,,,0,0,,,M,,M,,*5C
INFO:root:,2023-05-26T22:48:43,14.729,41,98.06,$GNRMC,224853.000,V,,,,,0.19,236.82,260523,,,N*5C
INFO:root:,2023-05-26T22:48:43,16.784,25,98.17,$GNGGA,224854.000,,,,,0,0,,,M,,M,,*5B
INFO:root:,2023-05-26T22:48:43,18.744,30,98.35,$GNRMC,224854.000,V,,,,,2.04,236.82,260523,,,N*55
INFO:root:,2023-05-26T22:48:43,1.618,50,98.52,$GNGGA,224855.000,,,,,0,0,,,M,,M,,*5A
INFO:root:,2023-05-26T22:48:43,1.766,46,98.2,$GNRMC,224855.000,V,,,,,2.98,246.88,260523,,,N*5C
INFO:root:,2023-05-26T22:48:43,1.962,42,98.15,$GNGGA,224856.000,,,,,0,0,,,M,,M,,*59
INFO:root:,2023-05-26T22:48:43,2.207,40,98.06,$GNRMC,224856.000,V,,,,,2.77,267.73,260523,,,N*59
INFO:root:,2023-05-26T22:48:57,2.537,27,98.06,$GNGGA,224857.000,3320.0675,N,11730.5528,W,1,4,1.78,-10.4,M,-34.9,M,,*67
INFO:root:,2023-05-26T22:48:57,2.567,6,98.08,$GNRMC,224857.000,A,3320.0675,N,11730.5528,W,2.51,258.53,260523,,,A*6B
INFO:root:,2023-05-26T22:48:58,2.648,0,98.4,$GNGGA,224858.000,3320.0636,N,11730.5546,W,1,4,1.78,-10.5,M,-34.9,M,,*66
INFO:root:,2023-05-26T22:48:58,2.472,0,98.64,$GNRMC,224858.000,A,3320.0636,N,11730.5546,W,2.73,249.36,260523,,,A*68
INFO:root:,2023-05-26T22:48:59,3.548,0,98.51,$GNGGA,224859.000,3320.0610,N,11730.5564,W,1,4,1.78,-10.5,M,-34.9,M,,*63
INFO:root:,2023-05-26T22:48:59,3.452,0,98.19,$GNRMC,224859.000,A,3320.0610,N,11730.5564,W,2.37,238.34,260523,,,A*69
INFO:root:,2023-05-26T22:49:00,4.233,0,97.93,$GNGGA,224900.000,3320.0607,N,11730.5571,W,6,1,99.99,-10.5,M,-34.9,M,,*50
INFO:root:,2023-05-26T22:49:00,4.092,0,97.67,$GNRMC,224900.000,V,,,,,2.37,238.11,260523,,,E*5A
INFO:root:,2023-05-26T22:49:00,5.008,0,97.62,$GNGGA,224901.000,,,,,0,0,,,M,,M,,*5A
INFO:root:,2023-05-26T22:49:00,5.003,20,97.64,$GNRMC,224901.000,V,,,,,0.00,238.11,260523,,,N*56
INFO:root:,2023-05-26T22:49:00,5.602,47,97.65,$GNGGA,224902.000,,,,,0,0,,,M,,M,,*59
INFO:root:,2023-05-26T22:49:00,6.3,46,97.63,$GNRMC,224902.000,V,,,,,0.00,238.11,260523,,,N*55
INFO:root:,2023-05-26T22:49:00,7.41,29,97.57,$GNGGA,224903.000,,,,,0,0,,,M,,M,,*58
INFO:root:,2023-05-26T22:49:00,8.194,44,97.5,$GNRMC,224903.000,V,,,,,0.00,238.11,260523,,,N*54
INFO:root:,2023-05-26T22:49:00,9.412,22,97.21,$GNGGA,224904.000,,,,,0,0,,,M,,M,,*5F
INFO:root:,2023-05-26T22:49:00,9.695,0,97.14,$GNRMC,224904.000,V,,,,,0.68,181.65,260523,,,N*5F
INFO:root:,2023-05-26T22:49:00,10.146,0,97.08,$GNGGA,224905.000,,,,,0,0,,,M,,M,,*5E
INFO:root:,2023-05-26T22:49:00,10.312,0,96.61,$GNRMC,224905.000,V,,,,,2.99,1.19,260523,,,N*50
INFO:root:,2023-05-26T22:49:00,11.178,0,96.15,$GNGGA,224906.000,,,,,0,0,,,M,,M,,*5D
INFO:root:,2023-05-26T22:49:00,12.084,0,96.22,$GNRMC,224906.000,V,,,,,4.04,261.23,260523,,,N*5C
INFO:root:,2023-05-26T22:49:00,13.464,0,96.84,$GNGGA,224907.000,,,,,0,0,,,M,,M,,*5C
INFO:root:,2023-05-26T22:49:00,15.434,0,97.45,$GNRMC,224907.000,V,,,,,0.39,261.23,260523,,,N*57
INFO:root:,2023-05-26T22:49:00,17.433,0,97.85,$GNGGA,224908.000,,,,,0,0,,,M,,M,,*53
INFO:root:,2023-05-26T22:49:00,19.537,0,98.11,$GNRMC,224908.000,V,,,,,0.03,261.23,260523,,,N*51
INFO:root:,2023-05-26T22:49:00,21.837,10,98.29,$GNGGA,224909.000,,,,,0,0,,,M,,M,,*52
INFO:root:,2023-05-26T22:49:00,24.117,0,98.78,$GNRMC,224909.000,V,,,,,2.46,254.27,260523,,,N*51
INFO:root:,2023-05-26T22:49:00,26.051,10,99.26,$GNGGA,224910.000,,,,,0,0,,,M,,M,,*5A
INFO:root:,2023-05-26T22:49:00,0.848,47,99.76,$GNRMC,224910.000,V,,,,,0.66,170.14,260523,,,N*5C
INFO:root:,2023-05-26T22:49:00,0.952,42,nan,$GNGGA,224911.000,,,,,0,0,,,M,,M,,*5B
INFO:root:,2023-05-26T22:49:00,1.085,29,nan,$GNRMC,224911.000,V,,,,,4.08,255.64,260523,,,N*52
INFO:root:,2023-05-26T22:49:00,1.211,14,nan,$GNGGA,224912.000,,,,,0,0,,,M,,M,,*58
INFO:root:,2023-05-26T22:49:00,1.397,3,nan,$GNRMC,224912.000,V,,,,,3.90,274.54,260523,,,N*57
INFO:root:,2023-05-26T22:49:00,1.572,3,nan,$GNGGA,224913.000,,,,,0,0,,,M,,M,,*59
INFO:root:,2023-05-26T22:49:00,1.8,0,nan,$GNRMC,224913.000,V,,,,,3.62,260.48,260523,,,N*53
INFO:root:,2023-05-26T22:49:00,2.078,0,nan,$GNGGA,224914.000,,,,,0,0,,,M,,M,,*5E
INFO:root:,2023-05-26T22:49:00,2.337,0,nan,$GNRMC,224914.000,V,,,,,3.59,277.66,260523,,,N*56
INFO:root:,2023-05-26T22:49:00,2.749,0,nan,$GNGGA,224915.000,,,,,0,0,,,M,,M,,*5F
INFO:root:,2023-05-26T22:49:00,3.196,0,nan,$GNRMC,224915.000,V,,,,,3.38,277.00,260523,,,N*50
INFO:root:,2023-05-26T22:49:00,3.541,0,nan,$GNGGA,224916.000,,,,,0,0,,,M,,M,,*5C
INFO:root:,2023-05-26T22:49:00,4.054,4,nan,$GNRMC,224916.000,V,,,,,3.38,276.95,260523,,,N*5E
INFO:root:,2023-05-26T22:49:00,4.669,8,nan,$GNGGA,224917.000,,,,,0,0,,,M,,M,,*5D
INFO:root:,2023-05-26T22:49:00,5.187,24,nan,$GNRMC,224917.000,V,,,,,0.01,276.95,260523,,,N*56
INFO:root:,2023-05-26T22:49:00,5.748,18,nan,$GNGGA,224918.000,,,,,0,0,,,M,,M,,*52
INFO:root:,2023-05-26T22:49:00,6.622,11,nan,$GNRMC,224918.000,V,,,,,0.01,276.95,260523,,,N*59
INFO:root:,2023-05-26T22:49:00,7.346,17,nan,$GNGGA,224919.000,,,,,0,0,,,M,,M,,*53
INFO:root:,2023-05-26T22:49:00,7.921,25,nan,$GNRMC,224919.000,V,,,,,1.05,179.86,260523,,,N*53
INFO:root:,2023-05-26T22:49:00,9.071,8,nan,$GNGGA,224920.000,,,,,0,0,,,M,,M,,*59
INFO:root:,2023-05-26T22:49:00,10.195,24,99.86,$GNRMC,224920.000,V,,,,,1.09,75.19,260523,,,N*6E
INFO:root:,2023-05-26T22:49:00,10.927,18,99.57,$GNGGA,224921.000,,,,,0,0,,,M,,M,,*58
INFO:root:,2023-05-26T22:49:00,11.461,0,99.28,$GNRMC,224921.000,V,,,,,1.11,217.25,260523,,,N*5F
INFO:root:,2023-05-26T22:49:00,12.322,0,99.7,$GNGGA,224922.000,,,,,0,0,,,M,,M,,*5B
INFO:root:,2023-05-26T22:49:00,11.035,0,nan,$GNRMC,224922.000,V,,,,,1.45,312.46,260523,,,N*5C
INFO:root:,2023-05-26T22:49:00,12.975,0,nan,$GNGGA,224923.000,,,,,0,0,,,M,,M,,*5A
INFO:root:,2023-05-26T22:49:00,10.523,0,nan,$GNRMC,224923.000,V,,,,,2.17,333.78,260523,,,N*57
INFO:root:,2023-05-26T22:49:00,13.967,0,99.25,$GNGGA,224924.000,,,,,0,0,,,M,,M,,*5D
INFO:root:,2023-05-26T22:49:00,0.814,53,98.76,$GNRMC,224924.000,V,,,,,0.62,94.91,260523,,,N*69
INFO:root:,2023-05-26T22:49:00,0.884,54,98.65,$GNGGA,224925.000,,,,,0,0,,,M,,M,,*5C
INFO:root:,2023-05-26T22:49:00,2.678,50,98.54,$GNRMC,224925.000,V,,,,,2.16,292.86,260523,,,N*5B
INFO:root:,2023-05-26T22:49:00,2.678,33,98.44,$GNRMC,224925.000,V,,,,,2.16,292.86,260523,,,N*5B
INFO:root:,2023-05-26T22:50:37,3.035,16,98.24,$GNGGA,225037.000,3320.0704,N,11730.5672,W,1,7,1.20,-9.6,M,-34.9,M,,*57
INFO:root:,2023-05-26T22:50:37,3.584,16,98.04,$GNRMC,225037.000,A,3320.0704,N,11730.5672,W,0.05,228.79,260523,,,A*63
INFO:root:,2023-05-26T22:50:38,0.826,51,98.36,$GNGGA,225038.000,3320.0712,N,11730.5672,W,1,6,1.38,-9.6,M,-34.9,M,,*57
INFO:root:,2023-05-26T22:50:38,0.887,50,98.86,$GNRMC,225038.000,A,3320.0712,N,11730.5672,W,0.15,228.79,260523,,,A*6A
INFO:root:,2023-05-26T22:50:39,0.995,50,99.36,$GNGGA,225039.000,3320.0715,N,11730.5669,W,1,6,1.38,-9.7,M,-34.9,M,,*5A
INFO:root:,2023-05-26T22:50:39,1.081,51,99.1,$GNRMC,225039.000,A,3320.0715,N,11730.5669,W,0.09,228.79,260523,,,A*6B
INFO:root:,2023-05-26T22:50:40,1.212,35,98.85,$GNGGA,225040.000,3320.0706,N,11730.5660,W,1,6,1.31,-9.8,M,-34.9,M,,*59
INFO:root:,2023-05-26T22:50:40,1.414,14,98.47,$GNRMC,225040.000,A,3320.0706,N,11730.5660,W,0.20,228.79,260523,,,A*65
INFO:root:,2023-05-26T22:50:41,1.597,19,98.27,$GNGGA,225041.000,3320.0709,N,11730.5655,W,1,5,1.59,-9.9,M,-34.9,M,,*5D
INFO:root:,2023-05-26T22:50:41,1.812,17,98.07,$GNRMC,225041.000,A,3320.0709,N,11730.5655,W,0.09,228.79,260523,,,A*66
INFO:root:,2023-05-26T22:50:42,32.419,51,98.38,$GNGGA,225042.000,3320.0713,N,11730.5655,W,1,7,1.20,-9.9,M,-34.9,M,,*59
INFO:root:,2023-05-26T22:50:42,2.497,66,99.34,$GNRMC,225042.000,A,3320.0713,N,11730.5655,W,0.05,228.79,260523,,,A*62
INFO:root:,2023-05-26T22:50:43,2.511,73,nan,$GNGGA,225043.000,3320.0709,N,11730.5652,W,1,7,1.20,-9.9,M,-34.9,M,,*54
INFO:root:,2023-05-26T22:50:43,2.502,79,nan,$GNRMC,225043.000,A,3320.0709,N,11730.5652,W,0.03,228.79,260523,,,A*69
INFO:root:,2023-05-26T22:50:44,2.525,86,nan,$GNGGA,225044.000,3320.0706,N,11730.5648,W,1,6,1.31,-9.9,M,-34.9,M,,*56
INFO:root:,2023-05-26T22:50:44,2.551,93,nan,$GNRMC,225044.000,A,3320.0706,N,11730.5648,W,0.04,228.79,260523,,,A*6D
INFO:root:,2023-05-26T22:50:45,2.591,100,nan,$GNGGA,225045.000,3320.0704,N,11730.5645,W,1,7,1.20,-9.9,M,-34.9,M,,*59
INFO:root:,2023-05-26T22:50:45,2.675,100,nan,$GNRMC,225045.000,A,3320.0704,N,11730.5645,W,0.06,228.79,260523,,,A*61
INFO:root:,2023-05-26T22:50:46,2.756,100,nan,$GNGGA,225046.000,3320.0702,N,11730.5642,W,1,7,1.20,-9.9,M,-34.9,M,,*5B
INFO:root:,2023-05-26T22:50:46,2.78,100,nan,$GNRMC,225046.000,A,3320.0702,N,11730.5642,W,0.02,228.79,260523,,,A*67
INFO:root:,2023-05-26T22:50:47,2.76,100,nan,$GNGGA,225047.000,3320.0699,N,11730.5643,W,1,7,1.20,-9.9,M,-34.9,M,,*58
INFO:root:,2023-05-26T22:50:47,2.75,100,nan,$GNRMC,225047.000,A,3320.0699,N,11730.5643,W,0.06,228.79,260523,,,A*60
INFO:root:,2023-05-26T22:50:48,2.722,100,nan,$GNGGA,225048.000,3320.0697,N,11730.5642,W,1,7,1.20,-9.9,M,-34.9,M,,*58
INFO:root:,2023-05-26T22:50:48,2.679,100,nan,$GNRMC,225048.000,A,3320.0697,N,11730.5642,W,0.05,228.79,260523,,,A*63
INFO:root:,2023-05-26T22:50:49,2.657,100,nan,$GNGGA,225049.000,3320.0693,N,11730.5639,W,1,7,1.20,-9.8,M,-34.9,M,,*50
INFO:root:,2023-05-26T22:50:49,2.637,100,nan,$GNRMC,225049.000,A,3320.0693,N,11730.5639,W,0.04,228.79,260523,,,A*6B
INFO:root:,2023-05-26T22:50:50,2.626,100,nan,$GNGGA,225050.000,3320.0686,N,11730.5637,W,1,7,1.20,-9.8,M,-34.9,M,,*52
